[{"id": "big1", "sitename": "Lower Big Creek ", "latitude": "45.29916", "longitude": "-110.8315", "amphoraid": "9fcb512c-5aed-4dcd-aeeb-fc5921864a2b"}, {"id": "big2", "sitename": "Upper Big Creek", "latitude": "45.30552", "longitude": "-110.86668", "amphoraid": "4e0569f6-cfd0-4539-9633-09e58c305163"}, {"id": "ced1", "sitename": "Cedar Creek", "latitude": "45.14327", "longitude": "-110.81286", "amphoraid": "e10df948-584c-4636-a995-117d92df0012"}, {"id": "dry1", "sitename": "Dry Creek Pre-Diversion", "latitude": "45.31766", "longitude": "-110.82704", "amphoraid": null}, {"id": "eig1", "sitename": "Eight Mile Creek", "latitude": "45.40911", "longitude": "-110.69962", "amphoraid": "1a89fe68-1e19-47b6-b1b8-093a6430ebff"}, {"id": "emi1", "sitename": "Emigrant Gulch", "latitude": "45.32059", "longitude": "-110.70985", "amphoraid": null}, {"id": "fri1", "sitename": "Fridley Creek, South Fork", "latitude": "45.34184", "longitude": "-110.75401", "amphoraid": null}, {"id": "gar1", "sitename": "Gardiner River", "latitude": "45.02905", "longitude": "-110.70039", "amphoraid": null}, {"id": "joe1", "sitename": "Joe Brown Creek", "latitude": "45.16534", "longitude": "-110.83945", "amphoraid": null}, {"id": "lan1", "sitename": "Landslide Creek", "latitude": "45.04554", "longitude": "-110.74589", "amphoraid": null}, {"id": "mil1", "sitename": "Mill Creek, lower", "latitude": "45.413", "longitude": "-110.649", "amphoraid": "d42c2c3e-b5ed-47ae-a3e7-a08cbddb5e8a"}, {"id": "mil2", "sitename": "Mill Creek, upper", "latitude": "45.29237", "longitude": "-110.55551", "amphoraid": "6047b1ea-0109-4c10-bf67-447ea3a00bbb"}, {"id": "mul1", "sitename": "Mulherin Creek", "latitude": "45.12792", "longitude": "-110.80634", "amphoraid": "a88f0fb1-0d2c-48a3-bc38-b60023d5c895"}, {"id": "pin1", "sitename": "Pine Creek, lower", "latitude": "45.50474", "longitude": "-110.56789", "amphoraid": null}, {"id": "pin2", "sitename": "Pine Creek, upper", "latitude": "45.49973", "longitude": "-110.5217", "amphoraid": null}, {"id": "sph1", "sitename": "Sphinx Creek", "latitude": "45.17118", "longitude": "-110.87528", "amphoraid": null}, {"id": "tom1", "sitename": "Tom Miner Creek", "latitude": "45.198197", "longitude": "-110.9086", "amphoraid": "d244592e-0b4a-4d39-95db-d4008a226a29"}, {"id": "yel1", "sitename": "Yellowstone River - Gardiner Airport", "latitude": "45.0445", "longitude": "-110.73794", "amphoraid": null}, {"id": "yel2", "sitename": "Yellowstone River - Corwin Springs Fishing Access", "latitude": "45.10781", "longitude": "-110.79016", "amphoraid": null}, {"id": "yel3", "sitename": "Yellowstone River - Tom Miner Bridge", "latitude": "45.2045", "longitude": "-110.902", "amphoraid": null}, {"id": "yel4", "sitename": "Yellowstone River - Reedfly Farm", "latitude": "45.32877", "longitude": "-110.77301", "amphoraid": null}, {"id": "yel5", "sitename": "Yellowstone River - Grey Owl Fishing Access", "latitude": "45.398", "longitude": "-110.704", "amphoraid": null}, {"id": "yel6", "sitename": "Yellowstone River - Dan Bailey Fishing Access", "latitude": "45.421", "longitude": "-110.637", "amphoraid": null}, {"id": "yel7", "sitename": "Yellowstone River - Mallards Rest Fishing Access", "latitude": "45.483", "longitude": "-110.62", "amphoraid": null}, {"id": "yel8", "sitename": "Yellowstone River - Pine Creek Fishing Access", "latitude": "45.512", "longitude": "-110.583", "amphoraid": null}, {"id": "yel9", "sitename": "Yellowstone River - Carters Bridge Fishing Access", "latitude": "45.597", "longitude": "-110.566", "amphoraid": null}]